{
  "nodes": [
    {
      "id": "4",
      "name": "Alter Markt",
      "lat": 51.2751,
      "lon": 7.2022,
      "group": "611"
    },
    {
      "id": "5",
      "name": "Wall/Museum",
      "lat": 51.2569,
      "lon": 7.1432,
      "group": "628"
    },
    {
      "id": "6",
      "name": "Wuppertal Hauptbahnhof",
      "lat": 51.2562,
      "lon": 7.1508,
      "group": "611"
    },
    {
      "id": "27",
      "name": "Neuenteich",
      "lat": 51.2556,
      "lon": 7.1489,
      "group": "623"
    },
    {
      "id": "102",
      "name": "Zoo",
      "lat": 51.251,
      "lon": 7.2,
      "group": "623"
    },
    {
      "id": "103",
      "name": "Stadion",
      "lat": 51.258,
      "lon": 7.18,
      "group": "640"
    },
    {
      "id": "107",
      "name": "Universit\u00e4t",
      "lat": 51.26,
      "lon": 7.21,
      "group": "611"
    },
    {
      "id": "108",
      "name": "Schloss",
      "lat": 51.252,
      "lon": 7.22,
      "group": "611"
    },
    {
      "id": "109",
      "name": "Park",
      "lat": 51.248,
      "lon": 7.23,
      "group": "640"
    },
    {
      "id": "132",
      "name": "Karlplatz",
      "lat": 51.2554,
      "lon": 7.1485,
      "group": "603"
    }
  ],
  "links": []
}